{
  "type": "FeatureCollection",
  "features": [
    {
      "geometry": {
        "type": "Point",
        "coordinates": [36.822373842380614, -1.2841790771859498]
      },
      "type": "Feature",
      "properties": {
        "category": "Restaurant",
        "marker-color": "#322312",
        "marker-symbol": "cafe",
        "hours": "6:30AM - 11:00PM",
        "name": "Artcaffé - Westminster",
        "storeid": "01"
      }
    },
    {
      "geometry": {
        "type": "Point",
        "coordinates": [36.78522390741698, -1.2825758463171544]
      },
      "type": "Feature",
      "properties": {
        "category": "Restaurant",
        "marker-color": "#322312",
        "marker-symbol": "cafe",
        "hours": "6:30AM - 11:00PM",
        "name": "Artcaffé Kileleshwa",
        "storeid": "02"
      }
    },
    {
      "geometry": {
        "type": "Point",
        "coordinates": [36.88911357116368, -1.2195348511108122]
      },
      "type": "Feature",
      "properties": {
        "category": "Restaurant",
        "marker-color": "#322312",
        "marker-symbol": "cafe",
        "hours": "6:30AM - 11:00PM",
        "name": "Artcaffé -Thika Road Mall",
        "storeid": "03"
      }
    },
    {
      "geometry": {
        "type": "Point",
        "coordinates": [36.84677616802839, -1.2149519968352736]
      },
      "type": "Feature",
      "properties": {
        "category": "Restaurant",
        "marker-color": "#322312",
        "marker-symbol": "cafe",
        "hours": "6:30AM - 11:00PM",
        "name": "Artcaffé Windsor",
        "storeid": "04"
      }
    },
    {
      "geometry": {
        "type": "Point",
        "coordinates": [36.96242634232737, -1.1659122144882843]
      },
      "type": "Feature",
      "properties": {
        "category": "Restaurant",
        "marker-color": "#322312",
        "marker-symbol": "cafe",
        "hours": "6:30AM - 11:00PM",
        "name": "Artcaffé Rubis Eastern Bypass",
        "storeid": "05"
      }
    },
    {
      "geometry": {
        "type": "Point",
        "coordinates": [36.839841457481576, -1.225021882126148]
      },
      "type": "Feature",
      "properties": {
        "category": "Restaurant",
        "marker-color": "#322312",
        "marker-symbol": "cafe",
        "hours": "6:30AM - 8:00PM",
        "name": "Ridgeways Mall",
        "storeid": "06"
      }
    },
    {
      "geometry": {
        "type": "Point",
        "coordinates": [36.82578376184935, -1.2539125165357659]
      },
      "type": "Feature",
      "properties": {
        "category": "Restaurant",
        "marker-color": "#322312",
        "marker-symbol": "cafe",
        "hours": "6:30AM - 11:00PM",
        "name": "Artcaffé Onn The way",
        "storeid": "07"
      }
    },
    {
      "geometry": {
        "type": "Point",
        "coordinates": [36.77000485581839, -1.2799662983594275]
      },
      "type": "Feature",
      "properties": {
        "category": "Restaurant",
        "marker-color": "#322312",
        "marker-symbol": "cafe",
        "hours": "6:30AM - 11:00PM",
        "name": "Artcaffé Lavington",
        "storeid": "08"
      }
    },
    {
      "geometry": {
        "type": "Point",
        "coordinates": [36.79494966179661, -1.203508764360626]
      },
      "type": "Feature",
      "properties": {
        "category": "Restaurant",
        "marker-color": "#322312",
        "marker-symbol": "cafe",
        "hours": "6:30AM - 11:00PM",
        "name": "Artcaffé Two Rivers Mall",
        "storeid": "09"
      }
    },
    {
      "geometry": {
        "type": "Point",
        "coordinates": [36.79279892883632, -1.293005799620398]
      },
      "type": "Feature",
      "properties": {
        "category": "Restaurant",
        "marker-color": "#322312",
        "marker-symbol": "cafe",
        "hours": "6:30AM - 11:00PM",
        "name": "Argwings Arcade",
        "storeid": "10"
      }
    },
    {
      "geometry": {
        "type": "Point",
        "coordinates": [36.81122644968494, -1.2918561107704314]
      },
      "type": "Feature",
      "properties": {
        "category": "Restaurant",
        "marker-color": "#322312",
        "marker-symbol": "cafe",
        "hours": "6:30AM - 7:00PM",
        "name": "Artcaffé ACK Gardens",
        "storeid": "11"
      }
    },
    {
      "geometry": {
        "type": "Point",
        "coordinates": [36.80267932421373, -1.2699898178789542]
      },
      "type": "Feature",
      "properties": {
        "category": "Restaurant",
        "marker-color": "#322312",
        "marker-symbol": "cafe",
        "hours": "6:30AM - 11:00PM",
        "name": "Artcaffé Riverside Drive",
        "storeid": "12"
      }
    },
    {
      "geometry": {
        "type": "Point",
        "coordinates": [36.78957644398479, -1.286507354678437]
      },
      "type": "Feature",
      "properties": {
        "category": "Restaurant",
        "marker-color": "#322312",
        "marker-symbol": "cafe",
        "hours": "6:30AM - 11:00PM",
        "name": "Artcaffe Yaya",
        "storeid": "13"
      }
    },
    {
      "geometry": {
        "type": "Point",
        "coordinates": [36.77030653017066, -1.2825966035271659]
      },
      "type": "Feature",
      "properties": {
        "category": "Restaurant",
        "marker-color": "#322312",
        "marker-symbol": "cafe",
        "hours": "6:30AM - 11:00PM",
        "name": "Artcaffé - Valley Arcade",
        "storeid": "14"
      }
    },
    {
      "geometry": {
        "type": "Point",
        "coordinates": [36.803960216324036, -1.250777730035876]
      },
      "type": "Feature",
      "properties": {
        "category": "Restaurant",
        "marker-color": "#322312",
        "marker-symbol": "cafe",
        "hours": "6:30AM - 11:00PM",
        "name": "Artcaffé - The Oval",
        "storeid": "15"
      }
    },
    {
      "geometry": {
        "type": "Point",
        "coordinates": [36.702256561916734, -1.3121884379237756]
      },
      "type": "Feature",
      "properties": {
        "category": "Restaurant",
        "marker-color": "#322312",
        "marker-symbol": "cafe",
        "hours": "6:30AM - 11:00PM",
        "name": "Artcaffé The Hub",
        "storeid": "16"
      }
    },
    {
      "geometry": {
        "type": "Point",
        "coordinates": [36.970342978007466, -1.1694121256254537]
      },
      "type": "Feature",
      "properties": {
        "category": "Restaurant",
        "marker-color": "#322312",
        "marker-symbol": "cafe",
        "hours": "6:30AM - 11:00PM",
        "name": "Artcaffé Shell Eastern Bypass",
        "storeid": "17"
      }
    },
    {
      "geometry": {
        "type": "Point",
        "coordinates": [36.78886670792831, -1.2630563136936]
      },
      "type": "Feature",
      "properties": {
        "category": "Restaurant",
        "marker-color": "#322312",
        "marker-symbol": "cafe",
        "hours": "6:30AM - 11:00PM",
        "name": "Artcaffé Rhapta Square",
        "storeid": "18"
      }
    },
    {
      "geometry": {
        "type": "Point",
        "coordinates": [36.95736986211134, -1.4735912548488377]
      },
      "type": "Feature",
      "properties": {
        "category": "Restaurant",
        "marker-color": "#322312",
        "marker-symbol": "cafe",
        "hours": "6:30AM - 11:00PM",
        "name": "Artcaffé - Kitengela Mall",
        "storeid": "19"
      }
    },
    {
      "geometry": {
        "type": "Point",
        "coordinates": [36.821778330162076, -1.2769998113154302]
      },
      "type": "Feature",
      "properties": {
        "category": "Restaurant",
        "marker-color": "#322312",
        "marker-symbol": "cafe",
        "hours": "6:30AM - 11:00PM",
        "name": "Artcaffé kimathi",
        "storeid": "20"
      }
    },
    {
      "geometry": {
        "type": "Point",
        "coordinates": [36.762518275704196, -1.2930009708247387]
      },
      "type": "Feature",
      "properties": {
        "category": "Restaurant",
        "marker-color": "#322312",
        "marker-symbol": "cafe",
        "hours": "6:30AM - 11:00PM",
        "name": "Artcaffé The Junction",
        "storeid": "21"
      }
    },
    {
      "geometry": {
        "type": "Point",
        "coordinates": [36.878385863133616, -1.2257364479761494]
      },
      "type": "Feature",
      "properties": {
        "category": "Restaurant",
        "marker-color": "#322312",
        "marker-symbol": "cafe",
        "hours": "6:30AM - 11:00PM",
        "name": "Artcaffé Garden City",
        "storeid": "22"
      }
    },
    {
      "geometry": {
        "type": "Point",
        "coordinates": [36.76544620872783, -1.3389119235602573]
      },
      "type": "Feature",
      "properties": {
        "category": "Restaurant",
        "marker-color": "#322312",
        "marker-symbol": "cafe",
        "hours": "6:30AM - 11:00PM",
        "name": "Artcaffé Galleria",
        "storeid": "23"
      }
    },
    {
      "geometry": {
        "type": "Point",
        "coordinates": [36.809611085902894, -1.2602093218591799]
      },
      "type": "Feature",
      "properties": {
        "category": "Restaurant",
        "marker-color": "#322312",
        "marker-symbol": "cafe",
        "hours": "6:30AM - 11:00PM",
        "name": "Artcaffé Gallant Mall",
        "storeid": "24"
      }
    },
    {
      "geometry": {
        "type": "Point",
        "coordinates": [36.80425932237683, -1.3153886079618589]
      },
      "type": "Feature",
      "properties": {
        "category": "Restaurant",
        "marker-color": "#322312",
        "marker-symbol": "cafe",
        "hours": "6:30AM - 11:00PM",
        "name": "Artcaffé Freedom Heights Mall",
        "storeid": "25"
      }
    },
    {
      "geometry": {
        "type": "Point",
        "coordinates": [36.818848899624314, -1.2839964884020671]
      },
      "type": "Feature",
      "properties": {
        "category": "Restaurant",
        "marker-color": "#322312",
        "marker-symbol": "cafe",
        "hours": "6:30AM - 11:00PM",
        "name": "Artcaffé - Chester House",
        "storeid": "26"
      }
    },
    {
      "geometry": {
        "type": "Point",
        "coordinates": [36.83396524049156, -1.309300896592653]
      },
      "type": "Feature",
      "properties": {
        "category": "Restaurant",
        "marker-color": "#322312",
        "marker-symbol": "cafe",
        "hours": "6:30AM - 11:00PM",
        "name": "Artcaffé Capital Center",
        "storeid": "27"
      }
    },
    {
      "geometry": {
        "type": "Point",
        "coordinates": [36.813211028858, -1.2998793342684352]
      },
      "type": "Feature",
      "properties": {
        "category": "Restaurant",
        "marker-color": "#322312",
        "marker-symbol": "cafe",
        "hours": "6:30AM - 11:00PM",
        "name": "Artcaffé Britam Tower",
        "storeid": "28"
      }
    },
    {
      "geometry": {
        "type": "Point",
        "coordinates": [36.813211028858, -1.2998793342684352]
      },
      "type": "Feature",
      "properties": {
        "category": "Restaurant",
        "marker-color": "#322312",
        "marker-symbol": "cafe",
        "hours": "6:30AM - 11:00PM",
        "name": "Artcaffé Britam Tower",
        "storeid": "29"
      }
    }
  ]
}
